{
  "shinkansen": {
    "北海道・東北新幹線": [
      {"name": "新函館北斗", "lat": 41.9046, "lng": 140.6484},
      {"name": "新青森", "lat": 40.8279, "lng": 140.6934},
      {"name": "盛岡", "lat": 39.7014, "lng": 141.1363},
      {"name": "仙台", "lat": 38.2601, "lng": 140.8824},
      {"name": "福島", "lat": 37.7546, "lng": 140.4591},
      {"name": "大宮", "lat": 35.9062, "lng": 139.6239},
      {"name": "東京", "lat": 35.6812, "lng": 139.7671}
    ],
    "東海道・山陽・九州新幹線": [
      {"name": "名古屋", "lat": 35.1709, "lng": 136.8815},
      {"name": "京都", "lat": 34.9858, "lng": 135.7587},
      {"name": "新大阪", "lat": 34.7334, "lng": 135.5001},
      {"name": "新神戸", "lat": 34.7053, "lng": 135.1952},
      {"name": "岡山", "lat": 34.6661, "lng": 133.9185},
      {"name": "広島", "lat": 34.3976, "lng": 132.4753},
      {"name": "博多", "lat": 33.5897, "lng": 130.4207},
      {"name": "熊本", "lat": 32.7898, "lng": 130.6888},
      {"name": "鹿児島中央", "lat": 31.5837, "lng": 130.5413}
    ],
    "北陸・上越新幹線": [
      {"name": "新潟", "lat": 37.9123, "lng": 139.0618},
      {"name": "長野", "lat": 36.6431, "lng": 138.1886},
      {"name": "富山", "lat": 36.7020, "lng": 137.2132},
      {"name": "金沢", "lat": 36.5780, "lng": 136.6482},
      {"name": "敦賀", "lat": 35.6450, "lng": 136.0759}
    ]
  },
  "plane": {
    "北海道・東北": [
      {"name": "新千歳空港", "lat": 42.7752, "lng": 141.6923},
      {"name": "旭川空港", "lat": 43.6708, "lng": 142.4475},
      {"name": "函館空港", "lat": 41.7700, "lng": 140.8219},
      {"name": "青森空港", "lat": 40.7347, "lng": 140.6908},
      {"name": "秋田空港", "lat": 39.6156, "lng": 140.2186},
      {"name": "仙台空港", "lat": 38.1397, "lng": 140.9169}
    ],
    "関東・中部": [
      {"name": "羽田空港", "lat": 35.5494, "lng": 139.7798},
      {"name": "成田国際空港", "lat": 35.7720, "lng": 140.3929},
      {"name": "新潟空港", "lat": 37.9564, "lng": 139.1114},
      {"name": "中部国際空港", "lat": 34.8584, "lng": 136.8054},
      {"name": "小牧空港", "lat": 35.2464, "lng": 136.9244}
    ],
    "近畿・中国・四国": [
      {"name": "伊丹空港", "lat": 34.7855, "lng": 135.4382},
      {"name": "関西国際空港", "lat": 34.4320, "lng": 135.2304},
      {"name": "神戸空港", "lat": 34.6328, "lng": 135.2239},
      {"name": "広島空港", "lat": 34.4361, "lng": 132.9194},
      {"name": "高松空港", "lat": 34.2142, "lng": 134.0156},
      {"name": "松山空港", "lat": 33.8272, "lng": 132.6997}
    ],
    "九州・沖縄": [
      {"name": "福岡空港", "lat": 33.5859, "lng": 130.4507},
      {"name": "北九州空港", "lat": 33.8458, "lng": 130.9458},
      {"name": "長崎空港", "lat": 32.9169, "lng": 129.9136},
      {"name": "熊本空港", "lat": 32.8372, "lng": 130.8550},
      {"name": "鹿児島空港", "lat": 31.8033, "lng": 130.7194},
      {"name": "那覇空港", "lat": 26.2064, "lng": 127.6465}
    ]
  },
  "bus": {
    "主要ターミナル": [
      {"name": "バスタ新宿", "lat": 35.6888, "lng": 139.7005},
      {"name": "東京駅鍛冶橋駐車場", "lat": 35.6775, "lng": 139.7691},
      {"name": "横浜駅西口バスターミナル", "lat": 35.4664, "lng": 139.6208},
      {"name": "名鉄バスセンター(名古屋)", "lat": 35.1675, "lng": 136.8831},
      {"name": "京都駅烏丸口", "lat": 34.9860, "lng": 135.7585},
      {"name": "大阪(梅田)阪急三番街", "lat": 34.7065, "lng": 135.4982},
      {"name": "湊町バスターミナル(OCAT)", "lat": 34.6672, "lng": 135.4952},
      {"name": "三宮バスターミナル", "lat": 34.6946, "lng": 135.1947},
      {"name": "広島バスセンター", "lat": 34.3958, "lng": 132.4552},
      {"name": "西鉄天神高速バスターミナル", "lat": 33.5894, "lng": 130.3992},
      {"name": "仙台駅東口バスターミナル", "lat": 38.2605, "lng": 140.8845},
      {"name": "札幌駅前ターミナル", "lat": 43.0675, "lng": 141.3508}
    ]
  }
}